City_ID,City,Country,Date,Latitude,Longitude,Cloudiness,Humidity,Max Temp,Wind Speed
0,Bluff,NZ,1579306788,-46.6,168.33,100,49,68.85,3.94
1,Tiksi,RU,1579306788,71.69,128.87,19,87,-15.86,12.15
2,Atuona,PF,1579306552,-9.8,-139.03,68,74,82.13,18.99
3,Kavaratti,IN,1579306790,10.57,72.64,54,74,79.95,13.96
4,Kapaa,US,1579306790,22.08,-159.32,75,60,78.8,19.46
5,Puerto Ayora,EC,1579306790,-0.74,-90.35,20,69,82.4,10.29
6,Tasiilaq,GL,1579306790,65.61,-37.64,0,66,15.8,2.24
7,Gutierrez Zamora,MX,1579306790,20.45,-97.08,75,69,75.2,6.93
8,Kavieng,PG,1579306790,-2.57,150.8,48,75,84.69,24.09
9,Samur,RU,1579306791,41.83,48.49,0,68,43.56,19.66
10,Nikolskoye,RU,1579306791,59.7,30.79,90,80,39.2,6.71
11,Dikson,RU,1579306791,73.51,80.55,100,100,-13.11,10.18
12,Mackenzie,CA,1579306791,55.3,-123.17,1,63,-7.6,1.95
13,Castro,BR,1579306630,-24.79,-50.01,99,88,60.87,7.58
14,Punta Arenas,CL,1579306791,-53.15,-70.92,40,62,51.8,32.21
15,Tokur,RU,1579306792,53.13,132.9,100,96,-14.8,1.66
16,Kodinar,IN,1579306794,20.79,70.7,5,54,55.85,11.03
17,Vaini,TO,1579306794,-21.2,-175.2,90,94,80.6,14.99
18,Busselton,AU,1579306794,-33.65,115.33,0,62,66.0,8.99
19,Ushuaia,AR,1579306794,-54.8,-68.3,75,87,46.4,29.97
20,Blagoyevo,RU,1579306794,63.37,47.92,99,95,25.63,7.87
21,Rikitea,PF,1579306794,-23.12,-134.97,25,81,77.5,16.46
22,Maniitsoq,GL,1579306794,65.42,-52.9,96,46,13.89,6.31
23,Novikovo,RU,1579306794,51.15,37.89,7,96,24.76,4.14
24,Lingao,CN,1579306794,19.91,109.69,100,89,68.13,17.2
25,Albany,US,1579306795,42.6,-73.97,20,43,15.01,11.41
26,Roald,NO,1579306795,62.58,6.13,0,52,46.4,12.75
27,Jamestown,US,1579306708,42.1,-79.24,1,66,19.0,4.7
28,Hermanus,ZA,1579306795,-34.42,19.23,100,86,66.0,5.01
29,Lompoc,US,1579306640,34.64,-120.46,1,66,59.0,13.87
30,Revelstoke,CA,1579306795,50.98,-118.2,90,85,15.8,3.36
31,Laguna,US,1579306797,38.42,-121.42,1,87,53.01,6.93
32,Cape Town,ZA,1579306798,-33.93,18.42,20,77,68.0,28.86
33,Bambanglipuro,ID,1579306799,-7.95,110.28,65,79,77.34,2.06
34,Butaritari,KI,1579306799,3.07,172.79,98,79,84.09,16.71
35,Severo-Kuril'sk,RU,1579306799,50.68,156.12,99,86,17.38,15.99
36,Quatre Cocos,MU,1579306799,-20.21,57.76,40,78,80.6,8.05
37,Carnarvon,AU,1579306799,-24.87,113.63,75,74,78.8,17.22
38,Reinosa,ES,1579306799,43.0,-4.14,100,87,52.0,5.82
39,Longyearbyen,SJ,1579306801,78.22,15.64,40,83,-4.0,6.93
40,Waitati,NZ,1579306760,-45.75,170.57,69,65,68.0,13.29
41,Northam,GB,1579306801,51.03,-4.22,20,93,44.01,4.7
42,Hobart,AU,1579306801,-42.88,147.33,75,41,66.0,8.05
43,Bredasdorp,ZA,1579306633,-34.53,20.04,100,77,64.4,11.41
44,Tuktoyaktuk,CA,1579306690,69.45,-133.04,20,76,-5.8,13.87
45,Pevek,RU,1579306803,69.7,170.31,54,98,-17.75,2.93
46,Barra de Tecoanapa,MX,1579306804,16.52,-98.75,9,58,82.78,5.01
47,Yar-Sale,RU,1579306804,66.83,70.83,99,89,-0.78,6.62
48,Airai,TL,1579306632,-8.93,125.41,73,77,75.76,1.54
49,Orlik,RU,1579306805,52.52,99.83,89,87,-9.4,4.34
50,Jardim,BR,1579306805,-21.48,-56.14,98,89,76.59,4.92
51,Pangnirtung,CA,1579306806,66.15,-65.71,40,61,-18.4,1.3
52,Yoichi,JP,1579306806,43.2,140.77,75,92,21.0,3.36
53,Iquitos,PE,1579306536,-3.75,-73.25,75,94,75.2,2.21
54,Silopi,TR,1579306806,37.25,42.47,99,85,44.76,10.69
55,Kem,RU,1579306806,64.96,34.58,98,90,21.42,2.44
56,Havre-Saint-Pierre,CA,1579306806,50.23,-63.6,1,49,-2.2,11.41
57,Nouadhibou,MR,1579306806,20.93,-17.03,41,34,68.0,14.99
58,Saskylakh,RU,1579306806,71.92,114.08,33,93,-6.83,12.21
59,Port Hedland,AU,1579306807,-20.32,118.57,99,89,84.2,10.29
60,Bireun,ID,1579306807,5.2,96.7,49,96,66.43,1.16
61,Avarua,CK,1579306807,-21.21,-159.78,87,83,84.2,12.75
62,East London,ZA,1579306807,-33.02,27.91,100,86,75.27,18.79
63,Hilo,US,1579306807,19.73,-155.09,90,78,75.2,14.99
64,Ibotirama,BR,1579306807,-12.19,-43.22,28,66,78.73,6.26
65,Port Alfred,ZA,1579306808,-33.59,26.89,95,96,66.99,3.0
66,Beringovskiy,RU,1579306808,63.05,179.32,100,97,29.95,18.9
67,Mataura,NZ,1579306809,-46.19,168.86,99,45,71.08,2.21
68,Konjic,BA,1579306809,43.65,17.96,90,100,26.6,1.12
69,Bambous Virieux,MU,1579306809,-20.34,57.76,40,78,80.6,8.05
70,New Norfolk,AU,1579306809,-42.78,147.06,75,41,66.0,8.05
71,Lebu,CL,1579306682,-37.62,-73.65,0,63,66.27,6.78
72,Tandil,AR,1579306802,-37.32,-59.13,0,46,71.01,1.01
73,Yellowknife,CA,1579306567,62.46,-114.35,75,75,-14.8,4.7
74,Kitgum,UG,1579306809,3.28,32.89,60,36,75.4,3.78
75,Esperance,AU,1579306810,-33.87,121.9,90,93,62.6,11.41
76,Netrakona,BD,1579306810,24.88,90.72,0,74,63.0,5.68
77,Pisco,PE,1579306718,-13.7,-76.22,99,30,71.6,24.16
78,Nyagan,RU,1579306810,62.14,65.39,51,89,10.72,11.18
79,Bilibino,RU,1579306811,68.05,166.44,6,89,-25.28,3.18
80,Sokoto,NG,1579306811,13.06,5.24,0,23,66.29,13.44
81,Hasaki,JP,1579306811,35.73,140.83,75,93,39.2,18.34
82,Chumikan,RU,1579306811,54.72,135.31,0,86,-11.58,4.85
83,Bulungu,CD,1579306812,-4.55,18.6,100,93,71.85,1.77
84,Clyde River,CA,1579306812,70.47,-68.59,20,75,-18.4,9.17
85,Sitka,US,1579306812,57.05,-135.33,20,45,24.8,17.22
86,Diffa,NE,1579306812,13.32,12.61,1,43,63.63,11.48
87,Westport,US,1579306812,41.14,-73.36,1,24,28.0,8.05
88,Yumen,CN,1579306813,40.28,97.2,97,92,16.74,22.41
89,Cherskiy,RU,1579306814,68.75,161.3,45,86,-25.26,2.26
90,Kodiak,US,1579306632,57.79,-152.41,90,64,33.8,16.11
91,Mahebourg,MU,1579306706,-20.41,57.7,40,78,80.6,8.05
92,Taltal,CL,1579306814,-25.4,-70.48,8,74,67.5,0.83
93,Ilulissat,GL,1579306745,69.22,-51.1,95,54,1.4,16.11
94,Turukhansk,RU,1579306814,65.82,87.98,100,95,-14.19,9.46
95,Ixtapa,MX,1579306548,20.7,-105.2,20,69,82.4,10.29
96,Balagansk,RU,1579306814,54.01,103.05,12,96,-3.71,6.04
97,Kearney,US,1579306614,40.7,-99.08,90,96,33.01,3.36
98,San Patricio,MX,1579306815,19.22,-104.7,75,74,84.2,5.82
99,Giohar,SO,1579306815,2.78,45.5,36,73,72.07,13.91
100,Thompson,CA,1579306767,55.74,-97.86,90,70,-5.8,8.05
101,Bulgan,MN,1579306816,48.81,103.53,0,76,-5.55,4.85
102,Barra do Garcas,BR,1579306816,-15.89,-52.26,95,85,76.55,2.3
103,Half Moon Bay,US,1579306816,37.46,-122.43,1,71,57.0,5.82
104,Vila Franca do Campo,PT,1579306816,37.72,-25.43,75,93,62.6,6.93
105,College,US,1579306818,64.86,-147.8,1,75,1.99,0.63
106,Betioky,MG,1579306818,-23.72,44.38,0,79,74.66,1.52
107,Cabo San Lucas,MX,1579306654,22.89,-109.91,5,34,80.6,9.17
108,Suntar,RU,1579306818,62.14,117.63,95,91,9.37,6.31
109,Buchanan,LR,1579306818,5.88,-10.05,20,94,77.0,4.05
110,Altay,CN,1579306818,47.87,88.12,100,95,1.49,3.33
111,Wattegama,LK,1579306818,6.8,81.48,100,96,71.67,3.24
112,Coquimbo,CL,1579306819,-29.95,-71.34,50,77,77.0,10.29
113,Beloha,MG,1579306819,-25.17,45.05,11,98,70.03,5.17
114,Vanimo,PG,1579306819,-2.67,141.3,70,81,82.85,23.15
115,Bama,NG,1579306819,11.52,13.69,43,54,61.68,6.4
116,Abomey-Calavi,BJ,1579306819,6.45,2.36,20,94,82.4,8.05
117,Abha,SA,1579306632,18.22,42.51,17,53,51.8,0.65
118,Bonavista,CA,1579306819,48.65,-53.11,100,88,23.0,28.99
119,Kaitangata,NZ,1579306819,-46.28,169.85,67,65,64.99,4.65
120,Nanortalik,GL,1579306696,60.14,-45.24,100,81,24.62,19.73
121,Saint-Philippe,RE,1579306820,-21.36,55.77,90,78,78.8,5.82
122,Nassau,US,1579306755,40.75,-73.58,1,30,28.4,5.82
123,Lengshuijiang,CN,1579306821,27.69,111.43,89,91,36.46,2.35
124,Mogadishu,SO,1579306821,2.04,45.34,47,79,78.67,23.96
125,Port Lincoln,AU,1579306821,-34.73,135.87,95,61,63.64,10.8
126,Sao Jose da Coroa Grande,BR,1579306821,-8.9,-35.15,58,77,81.07,11.7
127,Ukiah,US,1579306821,39.15,-123.21,1,81,52.0,3.36
128,Potosi,BO,1579306822,-19.58,-65.75,42,84,51.04,5.75
129,Kitimat,CA,1579306524,54.05,-128.65,90,55,8.6,16.11
130,Port Blair,IN,1579306822,11.67,92.75,20,94,73.4,1.12
131,Ouesso,CG,1579306822,1.61,16.05,76,68,74.62,2.26
132,Kununurra,AU,1579306822,-15.77,128.73,84,79,86.0,1.12
133,Pusad,IN,1579306822,19.9,77.58,0,54,63.59,4.68
134,Surgut,RU,1579306822,61.25,73.42,20,84,-0.4,11.18
135,Vila Velha,BR,1579306706,-20.33,-40.29,75,83,81.0,5.82
136,Morro Bay,US,1579306756,35.37,-120.85,1,50,59.0,5.82
137,Zhenhaicun,CN,1579306823,24.26,118.09,90,71,55.4,11.18
138,Port-Gentil,GA,1579306824,-0.72,8.78,20,94,78.8,1.12
139,Cockburn Town,TC,1579306824,21.46,-71.14,0,72,76.46,20.42
140,Bethel,US,1579306824,41.37,-73.41,1,28,26.01,9.17
141,Oodweyne,SO,1579306824,9.41,45.06,34,65,58.21,12.57
142,Wawa,NG,1579306825,9.9,4.42,0,30,76.37,11.01
143,Yeppoon,AU,1579306825,-23.13,150.73,17,54,84.2,6.93
144,George Town,MY,1579306696,5.41,100.34,20,74,80.6,4.7
145,Sao Filipe,CV,1579306825,14.9,-24.5,1,73,70.41,16.13
146,Talnakh,RU,1579306631,69.49,88.4,40,75,-20.2,8.95
147,Kristinestad,FI,1579306825,62.27,21.38,100,92,38.43,10.16
148,Mantenopolis,BR,1579306825,-18.86,-41.12,90,93,70.75,5.77
149,Necochea,AR,1579306682,-38.55,-58.74,0,33,67.55,13.82
150,Oruzgan,AF,1579306825,32.83,66.0,0,45,8.06,7.96
151,Sao Miguel do Araguaia,BR,1579306827,-13.28,-50.16,74,78,77.88,2.89
152,Juegang,CN,1579306827,32.32,121.19,1,77,39.0,8.01
153,Dunedin,NZ,1579306548,-45.87,170.5,69,65,68.0,13.29
154,Luderitz,NA,1579306827,-26.65,15.16,37,73,71.6,18.34
155,Vung Tau,VN,1579306565,10.35,107.08,4,80,73.24,3.8
156,Khatanga,RU,1579306827,71.97,102.5,100,98,-6.74,1.25
157,Provincia di Modena,IT,1579306589,44.5,10.9,40,75,48.0,6.93
158,Bogalusa,US,1579306827,30.79,-89.85,90,63,66.2,4.7
159,Chui,UY,1579306829,-33.7,-53.46,0,61,61.83,8.19
160,Kalengwa,ZM,1579306829,-13.47,25.0,100,97,65.5,2.82
161,Vargashi,RU,1579306830,55.36,65.85,0,85,0.32,5.66
162,Upernavik,GL,1579306830,72.79,-56.15,21,58,-12.87,2.82
163,Vardo,NO,1579306635,70.37,31.11,3,62,22.08,15.95
164,Amahai,ID,1579306830,-3.33,128.92,86,76,82.83,10.25
165,Opuwo,NA,1579306831,-18.06,13.84,58,61,71.82,11.83
166,Kalisz,PL,1579306831,51.76,18.09,95,88,35.01,1.99
167,Cidreira,BR,1579306831,-30.18,-50.21,13,51,72.64,10.94
168,Port Hueneme,US,1579306760,34.15,-119.2,1,54,62.01,6.93
169,Huarmey,PE,1579306832,-10.07,-78.15,18,74,70.83,4.81
170,Mar del Plata,AR,1579306810,-38.0,-57.56,0,63,69.01,9.17
171,Posyet,RU,1579306832,42.65,130.8,93,69,20.88,10.36
172,Broken Hill,AU,1579306832,-31.95,141.43,33,45,66.2,11.41
173,Manta,EC,1579306833,-0.95,-80.73,75,78,82.4,4.7
174,Goderich,CA,1579306680,43.75,-81.72,93,73,17.01,5.99
175,Petropavlovsk-Kamchatsky,RU,1579306721,53.05,158.65,20,77,5.0,8.95
176,Nishihara,JP,1579306834,26.18,127.76,75,63,60.8,19.46
177,Mayumba,GA,1579306834,-3.43,10.66,100,81,81.03,12.66
178,Pundaguitan,PH,1579306834,6.37,126.17,44,77,78.24,1.92
179,Arraial do Cabo,BR,1579306606,-22.97,-42.03,100,78,75.97,19.26
180,Huilong,CN,1579306834,31.81,121.66,22,72,39.0,3.0
181,Taman,RU,1579306835,45.21,36.72,75,75,32.0,13.42
182,Farah,AF,1579306835,32.5,62.5,0,54,32.61,3.85
183,Qaanaaq,GL,1579306835,77.48,-69.36,0,61,-15.5,7.49
184,Geraldton,AU,1579306835,-28.77,114.6,75,73,75.2,13.87
185,Benghazi,LY,1579306835,32.12,20.07,80,64,59.47,14.72
186,Broome,US,1579306835,42.25,-75.83,1,65,14.0,5.82
187,Yertsevo,RU,1579306835,60.8,40.09,100,91,33.85,7.29
188,Sao Joao da Barra,BR,1579306696,-21.64,-41.05,91,92,75.88,21.79
189,Emerald,AU,1579306837,-23.53,148.17,0,61,84.0,5.82
190,Asau,RO,1579306837,46.43,26.4,90,82,33.01,9.17
191,Provideniya,RU,1579306689,64.38,-173.3,99,94,4.87,7.16
192,Kalmunai,LK,1579306837,7.42,81.82,60,79,81.07,12.35
193,Magadan,RU,1579306837,59.57,150.8,100,72,-2.13,12.75
194,Talara,PE,1579306837,-4.58,-81.27,47,100,62.6,11.41
195,Nuuk,GL,1579306837,64.18,-51.72,100,56,15.8,13.87
196,Prince Rupert,CA,1579306838,54.32,-130.32,90,46,28.4,10.29
197,Maracacume,BR,1579306838,-2.04,-45.96,100,96,75.0,3.13
198,Muli,MV,1579306838,2.92,73.57,100,78,81.14,15.08
199,La Orilla,MX,1579306838,17.98,-102.23,86,70,80.73,3.53
200,Oum Hadjer,TD,1579306838,13.3,19.7,27,27,66.29,15.01
201,Sur,OM,1579306838,22.57,59.53,5,57,62.73,8.59
202,Ngunguru,NZ,1579306838,-35.62,174.5,0,54,78.01,5.99
203,Codrington,AU,1579306838,-38.27,141.97,100,86,61.95,14.18
204,Santa Isabel do Rio Negro,BR,1579306839,-0.41,-65.02,84,98,76.03,2.3
205,Bandarbeyla,SO,1579306839,9.49,50.81,51,81,76.5,26.04
206,Philadelphia,US,1579306544,39.95,-75.16,1,41,28.4,8.46
207,Los Llanos de Aridane,ES,1579306839,28.66,-17.92,0,59,62.6,10.29
208,Brainerd,US,1579306839,46.36,-94.2,90,92,17.01,9.17
209,Katsuura,JP,1579306839,35.13,140.3,75,93,39.2,18.34
210,Hamburg,DE,1579306590,53.55,10.0,75,75,46.4,14.99
211,Barao de Melgaco,BR,1579306839,-16.19,-55.97,21,70,86.0,5.82
212,Caravelas,BR,1579306729,-17.71,-39.25,0,83,79.86,13.4
213,Paita,PE,1579306840,-5.09,-81.11,44,100,62.6,11.41
214,Bathsheba,BB,1579306840,13.22,-59.52,75,78,78.8,12.75
215,Bukachacha,RU,1579306791,52.98,116.92,0,97,-13.25,1.28
216,Santa Cruz Cabralia,BR,1579306840,-16.28,-39.02,0,74,80.6,6.93
217,Hithadhoo,MV,1579306639,-0.6,73.08,90,78,82.22,15.82
218,Manicore,BR,1579306758,-5.81,-61.3,88,94,76.87,1.83
219,Turaif,SA,1579306840,31.67,38.66,23,100,39.2,5.21
220,Nelson Bay,AU,1579306840,-32.72,152.15,90,94,73.0,5.82
221,Torbay,CA,1579306840,47.67,-52.73,90,92,25.0,67.82
222,Yulara,AU,1579306841,-25.24,130.99,14,17,91.4,17.22
223,Buin,CL,1579306673,-33.73,-70.75,36,30,86.0,5.82
224,Parabel,RU,1579306842,58.7,81.48,85,85,-2.76,12.82
225,Oranjemund,NA,1579306821,-28.55,16.43,100,87,64.09,13.4
226,Minas,UY,1579306707,-34.38,-55.24,0,63,64.4,4.7
227,Dudinka,RU,1579306718,69.41,86.18,40,75,-20.2,8.95
228,Lorengau,PG,1579306844,-2.02,147.27,39,75,84.76,27.29
229,Te Anau,NZ,1579306645,-45.42,167.72,86,62,61.77,2.51
230,Qui Nhon,VN,1579306557,13.77,109.23,12,93,65.95,3.8
231,Diveyevo,RU,1579306844,55.04,43.24,100,96,33.28,6.46
232,Kruisfontein,ZA,1579306765,-34.0,24.73,100,92,63.77,14.92
233,Gamba,GA,1579306844,-2.65,10.0,91,87,77.58,6.2
234,La Palma,US,1579306844,33.85,-118.05,1,51,64.99,5.82
235,Ostrovnoy,RU,1579306760,68.05,39.51,100,88,13.1,7.16
236,Dingle,PH,1579306844,11.0,122.67,0,86,78.39,9.17
237,Hamilton,US,1579306668,39.18,-84.53,90,50,34.0,8.05
238,Alugan,PH,1579306845,12.22,125.48,2,88,78.39,2.95
239,Usinsk,RU,1579306845,65.99,57.53,97,96,3.4,9.24
240,Muros,ES,1579306845,42.78,-9.06,100,87,54.0,9.17
241,Egvekinot,RU,1579306845,66.32,-179.17,100,94,13.77,5.19
242,Ust-Nera,RU,1579306845,64.57,143.2,98,95,-37.44,1.97
243,Calatayud,ES,1579306845,41.35,-1.64,74,65,46.4,2.24
244,Nueva Granada,CO,1579306845,9.8,-74.39,3,55,85.06,6.62
245,Mehamn,NO,1579306845,71.04,27.85,31,79,21.2,23.04
246,Olinda,BR,1579306743,-8.01,-34.86,20,69,82.4,9.17
247,Campbell River,CA,1579306847,50.02,-125.24,90,73,33.8,4.7
248,Olafsvik,IS,1579306847,64.89,-23.71,44,67,33.24,17.36
249,Kushiro,JP,1579306847,42.98,144.37,20,67,19.4,3.36
250,Santa Maria,BR,1579306566,-29.68,-53.81,0,73,69.8,6.93
251,Marica,BR,1579306847,-22.92,-42.82,90,78,75.2,9.17
252,Touros,BR,1579306847,-5.2,-35.46,75,94,75.2,2.24
253,Mount Gambier,AU,1579306847,-37.83,140.77,90,56,69.8,9.17
254,Innisfail,AU,1579306848,-17.53,146.03,0,45,93.87,5.19
255,Cap Malheureux,MU,1579306848,-19.98,57.61,40,78,80.6,8.05
256,Kayes,ML,1579306848,14.0,-11.0,57,10,74.71,11.36
257,Dalby,AU,1579306848,-27.18,151.27,90,78,82.99,16.11
258,Oktyabrskiy,RU,1579306744,54.48,53.47,99,95,26.24,4.63
259,Barrow,US,1579306850,71.29,-156.79,1,70,-0.4,9.17
260,Sarangani,PH,1579306850,5.4,125.46,19,77,80.8,17.96
261,Darhan,MN,1579306850,49.49,105.92,96,99,-3.64,4.32
262,Palmas,BR,1579306684,-10.21,-48.36,20,83,80.6,3.36
263,Banda Aceh,ID,1579306850,5.56,95.32,93,93,72.79,6.11
264,Borujerd,IR,1579306850,33.9,48.75,35,83,29.98,8.9
265,Inhambane,MZ,1579306850,-23.86,35.38,41,82,82.17,10.27
266,Aras,ES,1579306850,42.56,-2.36,100,85,36.0,1.21
267,Port Elizabeth,ZA,1579306851,-33.92,25.57,75,77,68.0,12.75
268,Bowen,AU,1579306761,-20.02,148.23,87,74,87.01,4.7
269,Assiniboia,CA,1579306851,49.63,-105.98,100,93,-8.45,18.63
270,Iturama,BR,1579306851,-19.73,-50.2,100,87,75.2,3.87
271,Portland,US,1579306371,45.52,-122.68,90,86,43.0,5.82
272,Adjumani,UG,1579306851,3.38,31.79,53,35,79.86,1.79
273,Ponta do Sol,PT,1579306851,32.67,-17.1,20,77,62.6,2.24
274,Quang Ngai,VN,1579306851,15.12,108.8,23,81,71.15,7.05
275,Pangoa,PE,1579306853,-12.12,-73.0,94,95,72.63,1.48
276,Sheridan,US,1579306853,44.83,-106.92,90,78,24.8,3.36
277,Namtsy,RU,1579306853,62.72,129.67,98,65,-38.2,4.47
278,Warrnambool,AU,1579306571,-38.38,142.48,100,78,66.0,10.25
279,Uvinza,TZ,1579306853,-5.1,30.39,100,94,66.49,2.71
280,Santa Marta,CO,1579306573,11.24,-74.2,20,58,84.2,24.16
281,Akrata,GR,1579306855,38.15,22.32,58,81,46.99,2.13
282,Clyde,US,1579306819,41.3,-82.98,20,63,28.99,10.29
283,Oster,UA,1579306856,50.95,30.88,0,100,30.2,6.71
284,Lalmohan,BD,1579306856,22.34,90.74,0,70,64.67,4.12
285,Uglegorsk,RU,1579306856,49.08,142.03,0,85,3.49,2.17
286,Chokurdakh,RU,1579306856,70.63,147.92,60,97,-26.91,2.71
287,Solnechnyy,RU,1579306856,50.72,136.63,0,93,-8.57,2.66
288,Sovetskiy,RU,1579306856,61.36,63.58,89,87,9.46,8.72
289,Qasigiannguit,GL,1579306857,68.82,-51.19,95,54,1.4,16.11
290,Bud,US,1579306857,39.45,-86.18,90,58,33.01,18.34
291,San Policarpo,PH,1579306857,12.18,125.51,2,88,78.39,2.95
292,Beinamar,TD,1579306857,8.67,15.38,62,26,69.03,4.85
293,Saint Anthony,US,1579306857,45.02,-93.22,90,85,21.2,14.99
294,Kupang,ID,1579306857,-10.17,123.58,75,88,82.4,8.05
295,Sarkand,KZ,1579306857,45.41,79.92,97,45,19.08,4.05
296,Young,UY,1579306857,-32.68,-57.63,0,59,75.0,1.01
297,Alofi,NU,1579306857,-19.06,-169.92,100,88,79.5,29.12
298,Sao Gabriel da Cachoeira,BR,1579306859,-0.13,-67.09,93,96,75.43,1.19
299,Saint-Augustin,CA,1579306859,51.23,-58.65,0,69,-2.81,31.43
300,Agnibilekrou,CI,1579306859,7.13,-3.2,1,64,71.94,2.62
301,Hinton,CA,1579306860,53.4,-117.59,100,97,-20.45,1.95
302,Aklavik,CA,1579306860,68.22,-135.01,20,75,-0.4,4.7
303,Yenagoa,NG,1579306861,4.92,6.26,4,89,77.63,2.98
304,Grindavik,IS,1579306861,63.84,-22.43,75,62,32.0,13.87
305,Manado,ID,1579306862,1.49,124.85,20,89,84.2,2.24
306,Saint George,US,1579306862,37.1,-113.58,1,17,51.8,16.11
307,Norman Wells,CA,1579306652,65.28,-126.83,5,83,-9.4,8.05
308,Poum,NC,1579306750,-20.23,164.02,0,78,79.21,15.73
309,Vestmannaeyjar,IS,1579306862,63.44,-20.27,9,62,39.29,18.3
310,Maragogi,BR,1579306864,-9.01,-35.22,58,77,81.07,11.7
311,Tarauaca,BR,1579306864,-8.16,-70.77,91,98,73.26,2.42
312,Belaya Gora,RU,1579306864,68.53,146.42,100,93,-18.33,2.33
313,Hurghada,EG,1579306864,27.26,33.81,83,54,59.0,11.41
314,Zhezkazgan,KZ,1579306864,47.8,67.71,93,93,14.92,8.5
315,Marawi,PH,1579306864,8.0,124.29,17,76,78.01,1.99
316,Grand Forks,US,1579306601,47.93,-97.03,90,92,23.0,13.87
317,Carnaiba,BR,1579306864,-8.7,-37.67,85,68,77.09,13.35
318,Qaqortoq,GL,1579306865,60.72,-46.03,100,67,23.0,6.93
319,Constitucion,CL,1579306867,-35.33,-72.42,21,88,57.52,3.18
320,Senanga,ZM,1579306868,-16.12,23.27,98,96,67.73,4.03
321,Ekhabi,RU,1579306868,53.51,142.97,0,89,-5.48,12.12
322,Okha,RU,1579306868,53.57,142.95,0,89,-5.48,12.12
323,Vostochnyy,RU,1579306869,55.82,37.87,75,95,37.4,8.95
324,Shakawe,BW,1579306869,-18.37,21.85,0,89,66.06,2.33
325,Warrington,GB,1579306869,53.39,-2.58,40,93,42.01,13.87
326,Kieta,PG,1579306710,-6.22,155.63,25,64,84.96,5.3
327,Coruripe,BR,1579306869,-10.13,-36.18,54,79,79.75,12.91
328,Fes,MA,1579306677,34.04,-5.0,53,56,42.8,10.29
329,Leningradskiy,RU,1579306870,69.38,178.42,100,99,-5.48,9.06
330,Tutoia,BR,1579306871,-2.76,-42.27,99,92,76.12,3.85
331,Saldanha,ZA,1579306871,-33.01,17.94,0,72,64.4,18.34
332,Krasnokamensk,RU,1579306871,50.1,118.04,100,100,-9.09,1.23
333,Goba,ET,1579306872,7.02,39.98,21,47,48.7,4.63
334,Faanui,PF,1579306872,-16.48,-151.75,4,77,82.33,21.99
335,Pedernales,DO,1579306872,18.04,-71.74,20,74,80.6,13.87
336,Yanta,CN,1579306872,36.24,115.67,33,83,30.79,5.06
337,Turan,VN,1579306737,16.07,108.22,40,88,69.8,1.99
338,Mozarlandia,BR,1579306643,-14.74,-50.57,74,83,79.2,3.31
339,Kahului,US,1579306685,20.89,-156.47,75,73,77.0,11.41
340,Bjornevatn,NO,1579306873,69.67,29.98,20,84,12.2,14.99
341,Aykhal,RU,1579306873,66.0,111.5,100,91,-0.4,4.47
342,Vostok,RU,1579306874,46.49,135.88,0,87,-0.15,2.24
343,Avanuorri,NO,1579306874,71.0,24.66,0,67,21.2,17.22
344,Queanbeyan,AU,1579306874,-35.35,149.23,90,56,72.0,11.41
345,Narsaq,GL,1579306876,60.92,-46.05,100,67,23.0,6.93
346,Sarakhs,IR,1579306876,36.54,61.16,0,79,23.0,9.17
347,Sola,VU,1579306876,-13.88,167.55,75,52,87.8,8.05
348,Erzin,TR,1579306876,36.96,36.2,40,81,44.6,6.93
349,Hay River,CA,1579306876,60.82,-115.8,90,74,-22.0,2.24
350,Hat Yai,TH,1579306813,7.01,100.48,75,94,77.0,2.24
351,Nanakuli,US,1579306876,21.39,-158.15,90,78,78.8,13.87
352,Mount Isa,AU,1579306877,-20.73,139.5,0,13,95.0,11.41
353,Souillac,MU,1579306877,-20.52,57.52,40,78,80.6,8.05
354,Sladkovo,RU,1579306877,55.53,70.34,0,95,-4.67,3.29
355,Lata,PT,1579306877,40.16,-8.33,40,82,55.99,12.75
356,OEstersund,SE,1579306877,63.18,14.64,100,86,37.4,10.29
357,Capitan Bado,PY,1579306877,-23.27,-55.53,100,91,76.39,6.82
358,City of San Pedro,PH,1579306624,14.35,121.02,40,83,80.01,4.7
359,Dangriga,BZ,1579306877,16.97,-88.23,75,94,78.8,9.17
360,Daphne,US,1579306769,30.6,-87.9,1,48,68.0,5.82
361,Mopipi,BW,1579306878,-21.18,24.88,99,85,68.13,12.86
362,North Bend,US,1579306759,43.41,-124.22,90,93,45.0,9.17
363,Srednekolymsk,RU,1579306878,67.45,153.68,96,96,-18.13,3.83
364,Khuzhir,RU,1579306878,53.19,107.34,77,83,17.53,4.43
365,Port Macquarie,AU,1579306878,-31.43,152.92,90,88,75.0,6.93
366,Jiuquan,CN,1579306878,39.74,98.52,91,87,9.88,3.31
367,Elko,US,1579306878,41.0,-115.5,20,54,30.99,5.88
368,Deputatsky,RU,1579306878,69.3,139.9,25,98,-28.34,1.66
369,Yellapur,IN,1579306879,14.97,74.72,16,75,62.02,2.48
370,Flinders,AU,1579306774,-34.58,150.86,100,21,71.01,5.99
371,Klaksvik,FO,1579306879,62.23,-6.59,100,80,41.0,25.28
372,Arman,RU,1579306879,59.7,150.17,100,80,0.88,7.7
373,Antalaha,MG,1579306879,-14.9,50.28,100,75,82.71,2.89
374,Trairi,BR,1579306879,-3.28,-39.27,100,89,75.85,1.36
375,Meulaboh,ID,1579306879,4.14,96.13,86,77,82.09,9.28
376,Ahar,IR,1579306879,38.48,47.07,100,96,25.79,4.09
377,Atambua,ID,1579306725,-9.11,124.89,91,78,81.07,1.81
378,Guerrero Negro,MX,1579306880,27.98,-114.06,82,63,60.6,12.95
379,Penha,BR,1579306610,-26.77,-48.65,75,64,75.2,9.17
380,Luau,AO,1579306880,-10.71,22.22,100,84,69.31,6.17
381,Jasper,US,1579306880,37.2,-94.35,90,93,41.0,8.05
382,Samandag,TR,1579306880,36.08,35.98,40,81,44.6,6.93
383,Darab,IR,1579306880,28.75,54.54,77,49,47.41,1.54
384,Jalu,LY,1579306880,29.03,21.55,94,61,57.69,11.32
385,Prince Albert,CA,1579306880,53.2,-105.77,90,83,-4.0,2.24
386,Jumla,NP,1579306881,29.27,82.18,95,89,19.85,6.31
387,Rawson,AR,1579306881,-43.3,-65.1,77,43,74.84,19.55
388,Quryq,KZ,1579306881,43.2,51.65,100,93,40.69,19.37
389,Autazes,BR,1579306881,-3.58,-59.13,94,84,78.12,1.81
390,Ambilobe,MG,1579306881,-13.2,49.05,100,91,76.03,2.28
391,Sakakah,SA,1579306881,29.97,40.21,0,55,46.4,5.86
392,Datong,CN,1579306752,40.09,113.29,48,89,9.75,6.76
393,Kumul,CN,1579306881,42.8,93.45,4,44,8.65,1.63
394,Moyale,KE,1579306881,3.52,39.06,35,33,71.17,4.99
395,Tukrah,LY,1579306882,32.53,20.58,59,65,55.29,12.62
396,Harper,LR,1579306882,4.38,-7.72,17,90,77.9,3.24
397,Chapais,CA,1579306882,49.78,-74.85,1,74,-22.0,3.36
398,Lovington,US,1579306882,32.94,-103.35,5,54,59.0,16.11
399,Hokitika,NZ,1579306612,-42.72,170.97,0,77,60.57,11.07
400,Orje,NO,1579306883,59.48,11.66,100,93,42.8,3.36
401,Chara,RU,1579306883,56.91,118.26,99,75,-7.82,0.63
402,Arlit,NE,1579306883,18.74,7.39,17,29,63.1,14.58
403,North Platte,US,1579306884,41.12,-100.77,90,91,32.0,5.82
404,Bengkulu,ID,1579306884,-3.8,102.27,93,93,73.8,3.38
405,Whitehorse,CA,1579306884,60.72,-135.05,20,66,-27.0,3.36
406,Guatire,VE,1579306884,10.48,-66.54,90,98,77.0,13.87
407,Ocampo,MX,1579306884,21.65,-101.5,65,47,63.18,2.04
408,Laas,IT,1579306884,46.62,10.7,90,79,34.0,3.36
409,Kiama,AU,1579306884,-34.68,150.87,100,82,71.01,17.22
410,Mahon,ES,1579306884,39.89,4.27,35,76,48.2,8.05
411,Rio Grande,BR,1579306695,-32.03,-52.1,0,65,66.99,3.0
412,Gulu,UG,1579306804,2.77,32.3,75,37,77.31,2.84
413,Dongsheng,CN,1579306885,39.82,109.98,91,85,14.0,13.62
414,Ancud,CL,1579306885,-41.87,-73.82,0,68,68.0,9.17
415,Ribeira Grande,PT,1579306685,38.52,-28.7,88,89,57.94,7.47
416,Gabu,GW,1579306885,12.28,-14.22,32,8,73.69,6.22
417,Makakilo City,US,1579306592,21.35,-158.09,90,73,78.8,23.04
418,Hong Kong,HK,1579306885,22.29,114.16,20,59,62.01,4.7
419,Angoche,MZ,1579306751,-16.23,39.91,100,94,76.68,3.83
420,Sambava,MG,1579306887,-14.27,50.17,100,96,73.35,2.64
421,Yanji,CN,1579306887,42.91,129.51,87,83,8.02,1.3
422,Zaragoza,ES,1579306761,41.66,-0.88,47,86,41.0,3.36
423,Oudtshoorn,ZA,1579306887,-33.59,22.2,99,93,62.6,12.75
424,Worland,US,1579306887,44.02,-107.96,75,68,33.8,16.11
425,Sistranda,NO,1579306887,63.73,8.83,93,80,41.0,12.75
426,Kaeo,NZ,1579306887,-35.1,173.78,0,44,78.01,1.01
427,Verkhnevilyuysk,RU,1579306888,63.45,120.32,97,96,2.05,4.85
428,Palmer,US,1579306888,42.16,-72.33,20,36,19.4,6.93
429,Tuatapere,NZ,1579306888,-46.13,167.68,85,33,74.17,3.67
430,Paciran,ID,1579306888,-6.88,112.38,69,86,78.33,5.01
431,Hastinapur,IN,1579306888,29.17,78.02,30,93,50.52,1.63
432,Jiayuguan,CN,1579306888,39.82,98.3,82,82,17.98,15.21
433,Nanzhang,CN,1579306865,31.78,111.84,0,78,35.96,0.89
434,Biak,ID,1579306888,-0.91,122.88,43,75,81.95,4.07
435,Muriwai Beach,NZ,1579306889,-36.82,174.45,0,60,73.99,8.05
436,Pringsewu,ID,1579306891,-5.36,104.97,100,95,73.0,1.72
437,Kapchorwa,UG,1579306891,1.4,34.45,69,48,69.87,4.34
438,Nabire,ID,1579306891,-3.37,135.48,93,88,80.8,0.76
439,Tessalit,ML,1579306891,20.2,1.01,30,26,60.03,11.36
440,Balaka,MW,1579306891,-14.98,34.96,100,95,71.53,2.06
441,La Ronge,CA,1579306891,55.1,-105.28,90,76,-4.0,3.36
442,Port Hardy,CA,1579306892,50.7,-127.42,90,80,33.8,28.86
443,Mansfield,GB,1579306892,53.13,-1.2,20,86,39.99,14.99
444,Middelburg,ZA,1579306892,-25.78,29.46,0,70,59.18,1.86
445,Gorontalo,ID,1579306892,0.54,123.06,13,80,80.02,3.53
446,Les Cayes,HT,1579306892,18.2,-73.75,0,65,80.58,8.5
447,Arrondissement de Saint-Denis,FR,1579306892,48.92,2.33,20,75,41.0,3.36
448,Rosarito,MX,1579306893,32.33,-117.03,40,63,61.0,6.93
449,Diamantino,BR,1579306895,-14.41,-56.45,47,79,78.87,3.04
450,Acapulco de Juarez,MX,1579306669,16.86,-99.89,75,74,84.2,4.7
451,Pemberton,CA,1579306742,50.32,-122.8,20,84,10.99,0.98
452,Mecca,SA,1579306613,21.43,39.83,85,89,69.28,6.31
453,Zyryanka,RU,1579306780,65.75,150.85,100,98,-13.36,3.15
454,Grand-Lahou,CI,1579306895,5.14,-5.02,4,85,81.54,13.0
455,Lavrentiya,RU,1579306895,65.58,-171.0,92,93,1.45,4.32
456,Sept-Iles,CA,1579306731,50.2,-66.38,5,44,-4.0,8.05
457,Abu Zabad,SD,1579306897,12.35,29.25,17,26,62.91,17.09
458,Zambrow,PL,1579306897,52.99,22.24,58,93,33.01,12.28
459,Mbandaka,CD,1579306897,0.05,18.26,100,77,77.05,3.2
460,Bellevue,US,1579306801,47.61,-122.2,90,92,42.01,6.93
461,Shache,CN,1579306898,38.42,77.24,0,80,17.6,1.97
462,Cookeville,US,1579306898,36.16,-85.5,90,39,48.2,4.7
463,Keokuk,US,1579306637,40.4,-91.38,90,92,30.99,14.99
464,Tautira,PF,1579306899,-17.73,-149.15,75,58,87.8,20.8
465,Mandi Bahauddin,PK,1579306899,32.58,73.48,75,73,50.36,3.98
466,Noyabrsk,RU,1579306899,63.2,75.45,32,97,-6.02,16.6
467,Ponta Delgada,PT,1579306684,37.73,-25.67,75,93,62.6,6.93
468,Okhotsk,RU,1579306899,59.38,143.3,1,71,-19.3,8.57
469,Sinnai,IT,1579306899,39.3,9.2,40,87,53.6,3.36
470,Berlevag,NO,1579306899,70.86,29.09,13,79,21.2,23.04
471,Tari,NG,1579306899,12.41,4.49,0,20,68.22,12.95
472,Tyukhtet,RU,1579306900,56.54,89.3,100,91,22.84,19.91
473,Bonthe,SL,1579306900,7.53,-12.51,0,84,78.71,6.69
474,Seddon,AU,1579306900,-37.81,144.89,0,60,75.99,3.36
475,Coahuayana Viejo,MX,1579306901,18.73,-103.68,40,48,84.2,11.41
476,Porto-Novo,BJ,1579306901,6.5,2.6,20,94,82.4,8.05
477,Port Keats,AU,1579306901,-14.25,129.55,64,65,89.01,7.76
478,Bayir,TR,1579306901,37.27,28.22,0,86,37.4,4.7
479,Fortuna,US,1579306901,40.6,-124.16,75,53,51.8,6.93
480,Shimoda,JP,1579306902,34.67,138.95,75,86,44.6,31.09
481,Omboue,GA,1579306902,-1.57,9.26,100,94,73.87,1.95
482,Finschhafen,PG,1579306902,-6.6,147.87,97,73,84.11,3.51
483,Hoopstad,ZA,1579306902,-27.83,25.91,100,36,78.4,17.56
484,Cocobeach,GA,1579306902,1.0,9.58,20,94,77.0,4.7
485,Sibolga,ID,1579306902,1.74,98.78,59,96,70.38,4.09
486,Ingham,US,1579306902,42.6,-84.38,75,68,26.01,10.29
487,Hambantota,LK,1579306902,6.12,81.12,100,85,78.51,16.73
488,Victoria Falls,ZW,1579306903,-17.92,25.84,100,94,68.41,5.73
489,Yagodnoye,RU,1579306903,62.55,149.67,100,98,-16.83,1.36
490,Departamento de Maldonado,UY,1579306800,-34.67,-54.92,0,67,60.8,4.7
491,Beauceville,CA,1579306904,46.22,-70.78,57,81,-0.99,5.01
492,Inyonga,TZ,1579306904,-6.72,32.07,100,96,65.46,2.3
493,Corpus Christi,US,1579306735,27.8,-97.4,75,94,73.4,13.87
494,Muhos,FI,1579306904,64.75,26.17,90,98,32.0,8.05
495,Madingou,CG,1579306905,-4.15,13.55,100,97,73.6,3.89
496,Minudasht,IR,1579306905,37.23,55.37,38,80,39.2,4.7
497,Carutapera,BR,1579306683,-1.2,-46.02,92,81,82.0,15.66
498,Fenoarivo,MG,1579306905,-18.93,47.44,75,94,68.0,2.24
499,Oranzherei,RU,1579306805,45.85,47.57,75,97,32.0,4.47
500,Knysna,ZA,1579306744,-34.04,23.05,100,93,62.6,12.75
501,Baker City,US,1579306905,44.77,-117.83,90,68,32.0,3.91
502,Kuroiso,JP,1579306905,36.97,140.05,75,100,41.0,13.87
503,Bronnoysund,NO,1579306906,65.46,12.2,100,70,42.8,10.29
504,Kamenka,RU,1579306906,51.32,42.77,100,97,34.0,8.99
505,Uvalde,US,1579306906,29.37,-99.77,90,100,64.0,5.82
506,Avera,US,1579306906,33.19,-82.53,1,36,50.0,5.82
507,Turtas,RU,1579306906,58.94,69.13,18,94,-0.89,7.2
508,Mamlyutka,KZ,1579306906,54.94,68.54,0,93,-3.84,2.24
509,Swakopmund,NA,1579306906,-22.68,14.53,93,93,66.99,2.24
510,Road Town,VG,1579306608,18.42,-64.62,20,73,77.0,6.93
511,Bam,IR,1579306907,29.11,58.36,3,56,43.77,4.72
512,Goure,NE,1579306907,13.98,10.27,1,37,62.01,8.01
513,Wanaka,NZ,1579306907,-44.7,169.15,84,33,78.01,4.0
514,Luga,RU,1579306907,58.74,29.85,72,91,32.29,7.14
515,Watrous,CA,1579306907,51.67,-105.47,100,92,-4.54,13.44
516,Linjiang,CN,1579306907,41.81,126.91,85,88,5.36,2.64
517,Kloulklubed,PW,1579306907,7.04,134.26,75,74,82.4,8.05
518,Dzilam Gonzalez,MX,1579306907,21.28,-88.93,0,73,76.05,25.21
519,Viedma,AR,1579306649,-40.81,-63.0,0,13,81.27,9.91
520,Omsukchan,RU,1579306908,62.53,155.8,100,98,-21.12,3.65
521,Pauini,BR,1579306908,-7.71,-66.98,71,96,76.15,3.74
522,Nikolayevka,RU,1579306908,53.13,47.2,89,95,24.94,4.74
523,Kilindoni,TZ,1579306908,-7.91,39.67,96,80,82.62,19.55
524,Bulayevo,KZ,1579306909,54.91,70.44,0,98,-4.23,2.82
525,Kutum,SD,1579306664,14.2,24.67,28,34,52.34,4.23
526,Nuevo Progreso,MX,1579306909,23.17,-97.95,64,79,75.0,4.23
527,Howard Springs,AU,1579306910,-12.5,131.05,40,66,90.0,11.41
528,Sabha,LY,1579306910,27.04,14.43,0,68,49.05,8.32
529,Hervey Bay,AU,1579306910,-25.3,152.85,40,66,88.0,6.93
530,Salalah,OM,1579306910,17.02,54.09,0,40,68.0,9.17
531,Qeshm,IR,1579306910,26.96,56.27,20,71,57.2,6.93
532,Ahipara,NZ,1579306910,-35.17,173.17,0,70,66.09,15.23
533,Wuzhou,CN,1579306910,23.48,111.32,100,68,48.78,3.62
534,Grand-Santi,GF,1579306910,4.25,-54.38,100,98,74.03,3.18
535,Tiarei,PF,1579306911,-17.53,-149.33,75,58,87.8,20.8
536,Tubuala,PA,1579306912,9.52,-79.03,40,78,82.0,6.93
537,Iqaluit,CA,1579306912,63.75,-68.51,75,69,-11.0,8.05
538,Tulun,RU,1579306741,54.56,100.58,100,84,9.64,5.57
539,Zhangjiakou,CN,1579306912,40.81,114.88,67,89,7.57,1.12
540,Safi,MA,1579306912,32.3,-9.24,0,54,52.23,8.9
541,Aasiaat,GL,1579306913,68.71,-52.87,94,94,-2.09,2.73
542,Pierre,US,1579306914,44.37,-100.35,90,92,28.99,4.7
543,Havelock,US,1579306914,34.88,-76.9,5,41,42.8,9.17
544,San Angelo,US,1579306868,31.46,-100.44,90,93,48.99,3.36
545,Inongo,CD,1579306914,-1.95,18.27,80,84,74.91,3.27
546,Ulaangom,MN,1579306914,49.98,92.07,100,91,-10.68,2.98
547,Alice Springs,AU,1579306844,-23.7,133.88,2,15,91.4,12.75
548,Hearst,CA,1579306914,49.68,-83.67,41,92,2.97,4.63
549,Wajima,JP,1579306914,37.4,136.9,20,60,39.2,9.17
550,Michigan City,US,1579306680,41.71,-86.89,90,100,27.0,6.93
551,Waipawa,NZ,1579306916,-41.41,175.52,100,77,73.0,14.99
552,Cuautepec,MX,1579306916,16.7,-99.0,30,69,82.78,7.76
553,Yangi Marg`ilon,UZ,1579306665,40.43,71.72,0,92,24.8,3.8
554,Itapetininga,BR,1579306916,-23.59,-48.05,94,83,65.05,16.08
555,Pouembout,NC,1579306917,-21.13,164.9,8,43,89.15,4.18
556,Guozhen,CN,1579306918,34.37,107.36,66,76,28.51,3.94
557,Whitecourt,CA,1579306918,54.15,-115.69,20,62,-14.8,13.87
558,Jizan,SA,1579306918,17.33,42.67,32,69,73.4,6.93
559,Inhuma,BR,1579306899,-6.67,-41.71,95,92,70.3,5.86
560,Teknaf,BD,1579306918,20.86,92.31,22,74,55.89,1.92
561,Grants,US,1579306920,35.15,-107.85,1,52,41.0,12.75
562,Cabra,ES,1579306920,37.47,-4.44,60,93,46.99,2.24
563,Korla,CN,1579306921,41.76,86.15,0,92,26.01,7.0
564,Esim,GH,1579306921,4.87,-2.24,0,88,78.17,3.56
565,Dzaoudzi,YT,1579306921,-12.79,45.27,99,88,80.6,8.05
566,Laureles,US,1579306921,26.11,-97.49,1,73,75.99,13.87
567,Cayenne,GF,1579306680,4.93,-52.33,75,88,78.8,4.7
568,Isangel,VU,1579306659,-19.55,169.27,75,74,84.2,6.93
569,Topaowan,CN,1579306921,30.67,112.69,0,90,36.0,2.66
570,Sinnamary,GF,1579306921,5.38,-52.95,92,82,79.41,16.26
571,Katobu,ID,1579306922,-4.94,122.53,84,74,84.29,1.32
